[{"pk": 1, "model": "locations.locationcategory", "fields": {"name": "Restaurant", "slug": "restaurant"}}, {"pk": 2, "model": "locations.locationcategory", "fields": {"name": "Retail", "slug": "retail"}}, {"pk": 101, "model": "locations.location", "fields": {"category": [1], "city": "Washington", "name": "White House", "url": "", "is_active": false, "original_name": "Test 1", "longitude": "-77.037655500000000", "state": "DC", "postal_code": "20500", "upload_count": 0, "latitude": "38.898714900000002", "street_address": "1600 Pennsylvania Ave, NW", "description": ""}}, {"pk": 102, "model": "locations.location", "fields": {"category": [1], "city": "Slidell", "name": "Waffle House", "url": "", "is_active": true, "original_name": "Test 2", "longitude": "-89.765845999999996", "state": "LA", "postal_code": "70458", "upload_count": 0, "latitude": "30.250634000000002", "street_address": "2006 Old Spanish Trl", "description": ""}}, {"pk": 103, "model": "locations.location", "fields": {"category": [1], "city": "Skokie", "name": "Poochie's", "url": "", "is_active": true, "original_name": "Test 3", "longitude": "-87.718474000000001", "state": "IL", "postal_code": "60203", "upload_count": 0, "latitude": "42.041102000000002", "street_address": "3602 Dempster St ", "description": ""}}, {"pk": 104, "model": "locations.location", "fields": {"category": [1], "city": "Ketchikan", "name": "Annabelle's", "url": "", "is_active": true, "original_name": "Test 4", "longitude": "-131.647859299999993", "state": "AK", "postal_code": "99901", "upload_count": 0, "latitude": "55.342224000000002", "street_address": "326 Front Street", "description": ""}}, {"pk": 105, "model": "locations.location", "fields": {"category": [1, 2], "city": "Arlington", "name": "Lost Dog Cafe", "url": "", "is_active": true, "original_name": "Test 5", "longitude": "-77.141552099999998", "state": "VA", "postal_code": "22205", "upload_count": 0, "latitude": "38.885620500000002", "street_address": "5876 Washington Boulevard", "description": ""}}, {"pk": 106, "model": "locations.location", "fields": {"category": [2], "city": "Washington", "name": "Rayburn House Office Building", "url": "", "is_active": true, "original_name": "Test 6", "longitude": "-77.010938899999999", "state": "DC", "postal_code": "20515", "upload_count": 0, "latitude": "38.887603499999997", "street_address": "45 Independence Ave SW", "description": ""}}, {"pk": 107, "model": "locations.location", "fields": {"category": [2], "city": "Alexandria", "name": "Port City Brewing", "url": "", "is_active": true, "original_name": "Test 7", "longitude": "-77.101469300000005", "state": "VA", "postal_code": "22304", "upload_count": 0, "latitude": "38.808195800000000", "street_address": "3950 Wheeler Ave", "description": ""}}, {"pk": 108, "model": "locations.location", "fields": {"category": [2], "city": "Springfield", "name": "Total Wine", "url": "", "is_active": true, "original_name": "Test 8", "longitude": "-77.183075200000005", "state": "VA", "postal_code": "22150", "upload_count": 0, "latitude": "38.780713700000000", "street_address": "6801 Bland St ", "description": ""}}, {"pk": 109, "model": "locations.location", "fields": {"category": [2], "city": "Nellysford", "name": "Wild Wolf Brewing", "url": "", "is_active": true, "original_name": "Test 9", "longitude": "-78.878612399999994", "state": "VA", "postal_code": "22958", "upload_count": 0, "latitude": "37.887533699999999", "street_address": "2461 Rockfish Valley Highway", "description": ""}}, {"pk": 110, "model": "locations.location", "fields": {"category": [2], "city": "Washington", "name": "DC Brau", "url": "", "is_active": true, "original_name": "Test 10", "longitude": "-76.960550200000000", "state": "DC", "postal_code": "20018", "upload_count": 0, "latitude": "38.928926300000001", "street_address": "3178 Bladensburg Road NE", "description": ""}}, {"pk": 111, "model": "locations.location", "fields": {"category": [2], "city": "Frederick", "name": "Flying Dog Brewery", "url": "", "is_active": true, "original_name": "Test 11", "longitude": "-77.426454000000007", "state": "MD", "postal_code": "21703", "upload_count": 0, "latitude": "39.362696000000000", "street_address": "4607 Wedgewood Boulevard", "description": ""}}, {"pk": 112, "model": "locations.location", "fields": {"category": [2], "city": "Arlington", "name": "Westover Market", "url": "", "is_active": true, "original_name": "Test 12", "longitude": null, "state": "VA", "postal_code": "22205", "upload_count": 0, "latitude": null, "street_address": "5863 North Washington Boulevard", "description": ""}}]